[
  {
    "id": "wa_amphitheater_mountain",
    "name": "Amphitheater Mountain",
    "elevationFt": 8374,
    "lat": 48.97566,
    "lng": -120.192342,
    "routes": [
      {
        "id": "wa_amphitheater_mountain_middle_finger_buttress_left_side",
        "name": "Middle Finger Buttress - Left Side",
        "gainFt": null,
        "approachLen": 92
      },
      {
        "id": "wa_amphitheater_mountain_middle_finger_buttress_right_side",
        "name": "Middle Finger Buttress - Right Side",
        "gainFt": null,
        "approachLen": 126
      },
      {
        "id": "wa_amphitheater_mountain_pilgrimage_to_mecca",
        "name": "Pilgrimage to Mecca",
        "gainFt": null,
        "approachLen": 239
      },
      {
        "id": "wa_amphitheater_mountain_west_route",
        "name": "West Route",
        "gainFt": null,
        "approachLen": 635
      },
      {
        "id": "wa_amphitheater_mountain_north_ridge",
        "name": "North Ridge",
        "gainFt": null,
        "approachLen": 130
      },
      {
        "id": "wa_amphitheater_mountain_finger_of_fatwa",
        "name": "Finger of Fatwa",
        "gainFt": null,
        "approachLen": 122
      }
    ]
  },
  {
    "id": "wa_north_early_winters_spire",
    "name": "North Early Winters Spire",
    "elevationFt": 7760,
    "lat": 48.512935,
    "lng": -120.655465,
    "routes": [
      {
        "id": "wa_flycatcher_buttress",
        "name": "Flycatcher Buttress",
        "gainFt": 2400,
        "approachLen": 161
      },
      {
        "id": "wa_labor_pains",
        "name": "Labor Pains",
        "gainFt": 2400,
        "approachLen": 203
      },
      {
        "id": "wa_chockstone_route",
        "name": "Chockstone Route",
        "gainFt": 2350,
        "approachLen": 193
      },
      {
        "id": "wa_the_west_face",
        "name": "The West Face",
        "gainFt": 2400,
        "approachLen": 170
      },
      {
        "id": "wa_early_winter_couloir",
        "name": "Early Winter Couloir",
        "gainFt": 2400,
        "approachLen": 197
      }
    ]
  },
  {
    "id": "wa_concord_tower",
    "name": "Concord Tower",
    "elevationFt": 7611,
    "lat": 48.514505,
    "lng": -120.658265,
    "routes": [
      {
        "id": "wa_the_cave_route",
        "name": "The Cave Route",
        "gainFt": 2300,
        "approachLen": 287
      },
      {
        "id": "wa_north_face_var_right_directisimo",
        "name": "North Face Var. Right (Directisimo)",
        "gainFt": 2300,
        "approachLen": 275
      },
      {
        "id": "wa_south_face_center",
        "name": "South Face Center",
        "gainFt": 2300,
        "approachLen": 278
      }
    ]
  },
  {
    "id": "wa_west_face_6",
    "name": "West Face",
    "elevationFt": null,
    "lat": 46.32448,
    "lng": -121.92476,
    "routes": [
      {
        "id": "wa_nest_route",
        "name": "Nest Route",
        "gainFt": 700,
        "approachLen": 251
      },
      {
        "id": "wa_wild_wild_west",
        "name": "Wild Wild West",
        "gainFt": 700,
        "approachLen": 251
      },
      {
        "id": "wa_spectacle_route",
        "name": "Spectacle Route",
        "gainFt": 700,
        "approachLen": 251
      }
    ]
  },
  {
    "id": "wa_north_side",
    "name": "North Side",
    "elevationFt": null,
    "lat": 46.32448,
    "lng": -121.92476,
    "routes": [
      {
        "id": "wa_sidewinder_4",
        "name": "Sidewinder",
        "gainFt": 250,
        "approachLen": 251
      },
      {
        "id": "wa_clast_from_the_past",
        "name": "Clast from the Past",
        "gainFt": 250,
        "approachLen": 251
      },
      {
        "id": "wa_top_gun",
        "name": "Top Gun",
        "gainFt": 250,
        "approachLen": 251
      }
    ]
  },
  {
    "id": "wa_mount_shuksan",
    "name": "Mount Shuksan",
    "elevationFt": 9131,
    "lat": 48.8315,
    "lng": -121.6032,
    "routes": [
      {
        "id": "wa_southeast_ridge_se_corner",
        "name": "Southeast Ridge (SE Corner)",
        "gainFt": 6600,
        "approachLen": 219
      },
      {
        "id": "wa_mount_shuksan_white_salmon_glacier",
        "name": "White Salmon Glacier",
        "gainFt": null,
        "approachLen": 0
      },
      {
        "id": "wa_sw_couloir_and_face",
        "name": "SW Couloir and Face",
        "gainFt": 6600,
        "approachLen": 184
      }
    ]
  },
  {
    "id": "wa_south_face_3",
    "name": "South Face",
    "elevationFt": null,
    "lat": 46.32649,
    "lng": -121.92365,
    "routes": [
      {
        "id": "wa_cobbles_101",
        "name": "Cobbles 101",
        "gainFt": 550,
        "approachLen": 251
      },
      {
        "id": "wa_bowling_alley_aka_regular_route",
        "name": "Bowling Alley (aka Regular Route)",
        "gainFt": 550,
        "approachLen": 251
      }
    ]
  },
  {
    "id": "wa_pinnacle_peak_tatoosh",
    "name": "Pinnacle Peak",
    "elevationFt": 6562,
    "lat": 46.757915,
    "lng": -121.732575,
    "routes": [
      {
        "id": "wa_southwest_scramble",
        "name": "Southwest Scramble",
        "gainFt": 2150,
        "approachLen": 202
      },
      {
        "id": "wa_east_ridge_8",
        "name": "East Ridge",
        "gainFt": 2150,
        "approachLen": 110
      }
    ]
  },
  {
    "id": "wa_shuksan_crag",
    "name": "Shuksan Crag",
    "elevationFt": null,
    "lat": 48.90581,
    "lng": -121.6776,
    "routes": [
      {
        "id": "wa_excavation_aka_the_crack",
        "name": "Excavation, AKA The Crack",
        "gainFt": 100,
        "approachLen": 0
      },
      {
        "id": "wa_last_chance_for_gas_aka_tricky_start",
        "name": "Last Chance for Gas, AKA Tricky Start",
        "gainFt": 100,
        "approachLen": 0
      }
    ]
  },
  {
    "id": "wa_winter_spring_ice_snow_mixed",
    "name": "Winter-Spring (ice, snow, mixed)",
    "elevationFt": null,
    "lat": 47.44572,
    "lng": -121.45471,
    "routes": [
      {
        "id": "wa_northeast_slabs",
        "name": "Northeast Slabs",
        "gainFt": 2500,
        "approachLen": 0
      },
      {
        "id": "wa_east_face_variation",
        "name": "East Face Variation",
        "gainFt": 2500,
        "approachLen": 0
      }
    ]
  },
  {
    "id": "wa_mount_baker",
    "name": "Mount Baker",
    "elevationFt": 10781,
    "lat": 48.776797,
    "lng": -121.814467,
    "routes": [
      {
        "id": "wa_mount_baker_boulder_park_cleaver",
        "name": "Boulder–Park Cleaver",
        "gainFt": null,
        "approachLen": 0
      },
      {
        "id": "wa_mount_baker_park_glacier_headwall",
        "name": "Park Glacier Headwall",
        "gainFt": 6300,
        "approachLen": 260
      }
    ]
  },
  {
    "id": "wa_mount_mccausland",
    "name": "Mount McCausland",
    "elevationFt": 5747,
    "lat": 47.7975661,
    "lng": -121.1034346,
    "routes": [
      {
        "id": "wa_mount_mccausland_n_route",
        "name": "North Slopes from Lake Valhalla",
        "gainFt": 1800,
        "approachLen": 265
      }
    ]
  },
  {
    "id": "wa_mount_pugh",
    "name": "Mount Pugh",
    "elevationFt": 7201,
    "lat": 48.143139,
    "lng": -121.374399,
    "routes": [
      {
        "id": "wa_mount_pugh_stujack",
        "name": "Stujack Pass + Summit Scramble",
        "gainFt": 5300,
        "approachLen": 134
      }
    ]
  },
  {
    "id": "wa_mount_mathias",
    "name": "Mount Mathias",
    "elevationFt": 7156,
    "lat": 47.80522,
    "lng": -123.676932,
    "routes": [
      {
        "id": "wa_mount_mathias_scramble",
        "name": "Bailey Range Scramble",
        "gainFt": 6130,
        "approachLen": 137
      }
    ]
  },
  {
    "id": "wa_south_early_winters_spire",
    "name": "South Early Winters Spire",
    "elevationFt": 7807,
    "lat": 48.512275,
    "lng": -120.655395,
    "routes": [
      {
        "id": "wa_south_early_winter_spire_east_buttress",
        "name": "East Buttress",
        "gainFt": 2400,
        "approachLen": 263
      }
    ]
  },
  {
    "id": "wa_ed_wood_memorial_buttress",
    "name": "Ed Wood Memorial Buttress",
    "elevationFt": null,
    "lat": 48.7716,
    "lng": -121.28356,
    "routes": [
      {
        "id": "wa_plan_9_from_outer_space",
        "name": "Plan 9 from Outer Space",
        "gainFt": null,
        "approachLen": 793
      }
    ]
  },
  {
    "id": "wa_mount_washington_olympic",
    "name": "Mount Washington",
    "elevationFt": 6255,
    "lat": 47.531349,
    "lng": -123.246118,
    "routes": [
      {
        "id": "wa_washington_ellinor_traverse_ridge",
        "name": "Washington Ellinor Traverse (Ridge)",
        "gainFt": 3200,
        "approachLen": 201
      }
    ]
  },
  {
    "id": "wa_cutthroat_peak",
    "name": "Cutthroat Peak",
    "elevationFt": 8065,
    "lat": 48.526495,
    "lng": -120.703655,
    "routes": [
      {
        "id": "wa_cutthroat_west_ridge",
        "name": "West Ridge",
        "gainFt": 3200,
        "approachLen": 262
      }
    ]
  },
  {
    "id": "wa_castle_peak_pasayten",
    "name": "Castle Peak",
    "elevationFt": 8343,
    "lat": 48.981991,
    "lng": -120.862054,
    "routes": [
      {
        "id": "wa_north_face_left_buttress",
        "name": "North Face (Left Buttress)",
        "gainFt": 6500,
        "approachLen": 298
      }
    ]
  },
  {
    "id": "wa_mount_adams",
    "name": "Mount Adams",
    "elevationFt": 12276,
    "lat": 46.202494,
    "lng": -121.490746,
    "routes": [
      {
        "id": "wa_mount_adams_north_ridge",
        "name": "North Ridge",
        "gainFt": 3500,
        "approachLen": 296
      }
    ]
  },
  {
    "id": "wa_forbidden_peak",
    "name": "Forbidden Peak",
    "elevationFt": 8815,
    "lat": 48.5115,
    "lng": -121.0579,
    "routes": [
      {
        "id": "wa_forbidden_peak_east_ledges",
        "name": "East Ledges",
        "gainFt": 0,
        "approachLen": 286
      }
    ]
  },
  {
    "id": "wa_mount_rainier",
    "name": "Mount Rainier",
    "elevationFt": 14406,
    "lat": 46.851731,
    "lng": -121.760395,
    "routes": [
      {
        "id": "wa_mount_rainier_disappointment_cleaver",
        "name": "Disappointment Cleaver",
        "gainFt": 9000,
        "approachLen": 148
      }
    ]
  },
  {
    "id": "wa_winter_spring_ice_snow_mixed_2",
    "name": "Winter-Spring (ice, snow, mixed)",
    "elevationFt": null,
    "lat": 47.44195,
    "lng": -121.40883,
    "routes": [
      {
        "id": "wa_northeast_buttress_3",
        "name": "Northeast Buttress",
        "gainFt": 3100,
        "approachLen": 0
      }
    ]
  },
  {
    "id": "wa_north_face_tiffany_mountain",
    "name": "North Face Tiffany Mountain",
    "elevationFt": null,
    "lat": 48.67089,
    "lng": -119.9321,
    "routes": [
      {
        "id": "wa_ne_couloir",
        "name": "NE Couloir",
        "gainFt": 1500,
        "approachLen": 281
      }
    ]
  },
  {
    "id": "wa_north_peak_2",
    "name": "North Peak",
    "elevationFt": null,
    "lat": 47.77453,
    "lng": -121.58093,
    "routes": [
      {
        "id": "wa_north_face_6",
        "name": "North Face",
        "gainFt": 4100,
        "approachLen": 293
      }
    ]
  }
]